[
  {
    "name": "France",
    "type": "country",
    "coordinates":{
      "lat":48.856986,
      "lng":2.352128
    },
    "popupContent": "country snazzy!",
    "places":[
      {
        "name": "Paris places-1",
        "type": "places",
        "coordinates": {
          "lat": 48.832590,
          "lng": 2.333794
        },
        "popupContent": "places snazzy!"
      },
      {
        "name": "Paris places-2",
        "type": "places",
        "coordinates": {
          "lat": 48.864199,
          "lng": 2.416841
        },
        "popupContent": "places snazzy!"
      },
      {
        "name": "Paris places-3",
        "type": "places",
        "coordinates": {
          "lat": 48.858196,
          "lng": 2.416362
        },
        "popupContent": "places snazzy!"
      },
      {
        "name": "Paris places-4",
        "type": "places",
        "coordinates": {
          "lat": 48.857559,
          "lng": 2.391634
        },
        "popupContent": "places snazzy!"
      },
      {
        "name": "Paris places-5",
        "type": "places",
        "coordinates": {
          "lat": 48.877482,
          "lng": 2.299729
        },
        "popupContent": "places snazzy!"
      }
    ],
    "city": [
      {
        "name": "Nantes",
        "type": "city",
        "coordinates": {
          "lat": 47.215221,
          "lng": -1.553267
        },
        "popupContent": "city snazzy!",
        "places":[
          {
            "name": "Nantes places-1",
            "type": "places",
            "coordinates": {
              "lat": 47.186486,
              "lng": -1.596806
            },
            "popupContent": "places snazzy!"
          },
          {
            "name": "Nantes places-2",
            "type": "places",
            "coordinates": {
              "lat": 47.154475,
              "lng": -1.534865
            },
            "popupContent": "places snazzy!"
          },
          {
            "name": "Nantes places-3",
            "type": "places",
            "coordinates": {
              "lat": 47.263173,
              "lng": -1.534887
            },
            "popupContent": "places snazzy!"
          }
        ]
      },
      {
        "name": "Reims",
        "type": "city",
        "coordinates": {
          "lat": 49.257894,
          "lng": 4.031735
        },
        "popupContent": "city snazzy!",
        "places":[
          {
            "name": "Reims places-1",
            "type": "places",
            "coordinates": {
              "lat": 49.249477,
              "lng": 3.991376
            },
            "popupContent": "places snazzy!"
          }
        ]
      },
      {
        "name": "Marseille",
        "type": "city",
        "coordinates": {
          "lat": 43.295906,
          "lng": 5.382384
        },
        "popupContent": "city snazzy!",
        "places":[
          {
            "name": "Marseille places-1",
            "type": "places",
            "coordinates": {
              "lat": 43.316528,
              "lng": 5.365322
            },
            "popupContent": "places snazzy!"
          },
          {
            "name": "Marseille places-2",
            "type": "places",
            "coordinates": {
              "lat": 43.220462,
              "lng": 5.375415
            },
            "popupContent": "places snazzy!"
          }
        ]
      }
    ]
  },
  {
    "name": "Bulgaria",
    "type": "country",
    "coordinates":{
      "lat":42.697611,
      "lng":23.321906
    },
    "popupContent": "country snazzy!",
    "places":[
      {
        "name": "Sofia places-1",
        "type": "places",
        "coordinates": {
          "lat": 42.691709,
          "lng": 23.311000
        },
        "popupContent": "places snazzy!"
      },
      {
        "name": "Sofia places-2",
        "type": "places",
        "coordinates": {
          "lat": 42.702278,
          "lng": 23.350140
        },
        "popupContent": "places snazzy!"
      },
      {
        "name": "Sofia places-3",
        "type": "places",
        "coordinates": {
          "lat": 42.682921,
          "lng": 23.320719
        },
        "popupContent": "places snazzy!"
      }
    ],
    "city": [
      {
        "name": "Varna",
        "type": "city",
        "coordinates": {
          "lat": 43.209830,
          "lng": 27.915466
        },
        "popupContent": "city snazzy!",
        "places":[
          {
            "name": "Varna places-1",
            "type": "places",
            "coordinates": {
              "lat": 43.235697,
              "lng": 27.872063
            },
            "popupContent": "places snazzy!"
          },
          {
            "name": "Varna places-2",
            "type": "places",
            "coordinates": {
              "lat": 43.235387,
              "lng": 28.000418
            },
            "popupContent": "places snazzy!"
          },
          {
            "name": "Varna places-3",
            "type": "places",
            "coordinates": {
              "lat": 43.128326,
              "lng": 27.904197
            },
            "popupContent": "places snazzy!"
          }
        ]
      },
      {
        "name": "Plovdiv",
        "type": "city",
        "coordinates": {
          "lat": 42.146319,
          "lng": 24.745610
        },
        "popupContent": "city snazzy!",
        "places":[
          {
            "name": "Plovdiv places-1",
            "type": "places",
            "coordinates": {
              "lat": 42.107278,
              "lng": 24.702854
            },
            "popupContent": "places snazzy!"
          },
          {
            "name": "Plovdiv places-2",
            "type": "places",
            "coordinates": {
              "lat": 42.162465,
              "lng": 24.726205
            },
            "popupContent": "places snazzy!"
          }
        ]
      }
    ]
  },
  {
    "name": "Moldova",
    "type": "country",
    "coordinates":{
      "lat":46.9999648,
      "lng":28.788137
    },
    "popupContent": "country snazzy!",
    "places":[
      {
        "name": "Bucharester places-1",
        "type": "places",
        "coordinates": {
          "lat": 44.451056,
          "lng": 26.109578
        },
        "popupContent": "places snazzy!"
      },
      {
        "name": "Bucharester places-2",
        "type": "places",
        "coordinates": {
          "lat": 44.441974,
          "lng": 26.115953
        },
        "popupContent": "places snazzy!"
      }
    ],
    "city": [
      {
        "name": "Pitesti",
        "type": "city",
        "coordinates": {
          "lat":44.856144,
          "lng":  24.869340
        },
        "popupContent": "city snazzy!",
        "places":[
          {
            "name": "Pitesti places-1",
            "type": "places",
            "coordinates": {
              "lat": 44.850355,
              "lng": 24.880010
            },
            "popupContent": "places snazzy!"
          }
        ]
      },
      {
        "name": "Napoca",
        "type": "city",
        "coordinates": {
          "lat":46.770215,
          "lng":23.621417
        },
        "popupContent": "city snazzy!",
        "places":[
          {
            "name": "Napoca places-1",
            "type": "places",
            "coordinates": {
              "lat": 46.776230,
              "lng":  23.602069
            },
            "popupContent": "places snazzy!"
          },
          {
            "name": "Napoca places-2",
            "type": "places",
            "coordinates": {
              "lat": 46.768429,
              "lng":  23.599786
            },
            "popupContent": "places snazzy!"
          }
        ]
      }
    ]
  },
  {
    "name": "Belarus",
    "type": "country",
    "coordinates":{
      "lat":53.8840092,
      "lng":27.5796472
    },
    "popupContent": "country snazzy!",
    "places":[
      {
        "name": "Minsk places-1",
        "type": "places",
        "coordinates": {
          "lat": 53.895895,
          "lng": 27.538260
        },
        "popupContent": "places snazzy!"
      },
      {
        "name": "Minsk places-2",
        "type": "places",
        "coordinates": {
          "lat": 53.905951,
          "lng": 27.533642
        },
        "popupContent": "places snazzy!"
      }
    ],
    "city": [
      {
        "name": "Gomel",
        "type": "city",
        "coordinates": {
          "lat": 52.434072,
          "lng": 30.987356
        },
        "popupContent": "city snazzy!",
        "places":[
          {
            "name": "Gomel places-1",
            "type": "places",
            "coordinates": {
              "lat": 52.424651,
              "lng": 30.927331
            },
            "popupContent": "places snazzy!"
          },
          {
            "name": "Gomel places-2",
            "type": "places",
            "coordinates": {
              "lat": 52.450659,
              "lng": 30.968911
            },
            "popupContent": "places snazzy!"
          },
          {
            "name": "Gomel places-3",
            "type": "places",
            "coordinates": {
              "lat": 52.429774,
              "lng":  30.967336
            },
            "popupContent": "places snazzy!"
          }
        ]
      }
    ]
  },
  {
    "name": "Denmark",
    "type": "country",
    "coordinates":{
      "lat":55.6713442,
      "lng":12.5237846
    },
    "popupContent": "country snazzy!",
    "places":[
      {
        "name": "Copenhagen places-1",
        "type": "places",
        "coordinates": {
          "lat": 55.676300,
          "lng": 12.583923
        },
        "popupContent": "places snazzy!"
      },
      {
        "name": "Copenhagen places-2",
        "type": "places",
        "coordinates": {
          "lat": 55.673026,
          "lng": 12.580025
        },
        "popupContent": "places snazzy!"
      }
    ],
    "city": [

    ]
  },
  {
    "name": "Belgium",
    "type": "country",
    "coordinates":{
      "lat":50.8550625,
      "lng":4.3053505
    },
    "popupContent": "country snazzy!",
    "places":[
      {
        "name": "Brussels places-1",
        "type": "places",
        "coordinates": {
          "lat": 50.849735,
          "lng": 4.338328
        },
        "popupContent": "places snazzy!"
      },
      {
        "name": "Brussels places-2",
        "type": "places",
        "coordinates": {
          "lat": 50.856289,
          "lng": 4.342259
        },
        "popupContent": "places snazzy!"
      },
      {
        "name": "Brussels places-3",
        "type": "places",
        "coordinates": {
          "lat": 50.833434,
          "lng": 4.346038
        },
        "popupContent": "places snazzy!"
      }
    ],
    "city": [
      {
        "name": "Gent",
        "type": "city",
        "coordinates": {
          "lat":51.054528,
          "lng": 3.713954
        },
        "popupContent": "city snazzy!",
        "places":[
          {
            "name": "Gent places-1",
            "type": "places",
            "coordinates": {
              "lat": 51.055924,
              "lng": 3.727522
            },
            "popupContent": "places snazzy!"
          }
        ]
      }
    ]
  },
  {
    "name": "Switzerland",
    "type": "country",
    "coordinates":{
      "lat":47.376763,
      "lng":8.541847
    },
    "popupContent": "country snazzy!",
    "places":[
      {
        "name": "Zurich places-1",
        "type": "places",
        "coordinates": {
          "lat": 47.377471,
          "lng": 8.540272
        },
        "popupContent": "places snazzy!"
      },
      {
        "name": "Zurich places-2",
        "type": "places",
        "coordinates": {
          "lat": 47.375135,
          "lng": 8.541174
        },
        "popupContent": "places snazzy!"
      },
      {
        "name": "Zurich places-3",
        "type": "places",
        "coordinates": {
          "lat": 47.376424,
          "lng": 8.547987
        },
        "popupContent": "places snazzy!"
      }
    ],
    "city": [
      {
        "name": "Bern",
        "type": "city",
        "coordinates": {
          "lat":46.947889,
          "lng": 7.447583
        },
        "popupContent": "city snazzy!",
        "places":[
          {
            "name": "Bern places-1",
            "type": "places",
            "coordinates": {
              "lat": 46.949839,
              "lng": 7.444109
            },
            "popupContent": "places snazzy!"
          },
          {
            "name": "Bern places-2",
            "type": "places",
            "coordinates": {
              "lat": 46.947658,
              "lng": 7.435538
            },
            "popupContent": "places snazzy!"
          }
        ]
      }
    ]
  },
  {
    "name": "Croatia",
    "type": "country",
    "coordinates":{
      "lat":45.813515,
      "lng":15.982544
    },
    "popupContent": "country snazzy!",
    "places":[
      {
        "name": "Zagreb places-1",
        "type": "places",
        "coordinates": {
          "lat": 45.807311,
          "lng": 16.003433
        },
        "popupContent": "places snazzy!"
      },
      {
        "name": "Zagreb places-2",
        "type": "places",
        "coordinates": {
          "lat": 45.796177,
          "lng": 15.981891
        },
        "popupContent": "places snazzy!"
      },
      {
        "name": "Zagreb places-3",
        "type": "places",
        "coordinates": {
          "lat": 45.794865,
          "lng": 15.966913
        },
        "popupContent": "places snazzy!"
      },
      {
        "name": "Zagreb places-4",
        "type": "places",
        "coordinates": {
          "lat": 45.813472,
          "lng":  15.958404
        },
        "popupContent": "places snazzy!"
      },
      {
        "name": "Zagreb places-5",
        "type": "places",
        "coordinates": {
          "lat": 45.805458,
          "lng":15.980556
        },
        "popupContent": "places snazzy!"
      },
      {
        "name": "Zagreb places-6",
        "type": "places",
        "coordinates": {
          "lat": 45.808389,
          "lng": 15.971799
        },
        "popupContent": "places snazzy!"
      },
      {
        "name": "Zagreb places-7",
        "type": "places",
        "coordinates": {
          "lat": 45.818981,
          "lng": 15.971537
        },
        "popupContent": "places snazzy!"
      }
    ],
    "city": [

    ]
  },
  {
    "name": "Austria",
    "type": "country",
    "coordinates":{
      "lat":48.211523,
      "lng":16.377479
    },
    "popupContent": "country snazzy!",
    "places":[
      {
        "name": "Vienna places-1",
        "type": "places",
        "coordinates": {
          "lat": 48.182721,
          "lng":  16.337889
        },
        "popupContent": "places snazzy!"
      },
      {
        "name": "Vienna places-2",
        "type": "places",
        "coordinates": {
          "lat": 48.214652,
          "lng": 16.336449
        },
        "popupContent": "places snazzy!"
      },
      {
        "name": "Vienna places-3",
        "type": "places",
        "coordinates": {
          "lat": 48.192552,
          "lng": 16.414911
        },
        "popupContent": "places snazzy!"
      }
    ],
    "city": [
      {
        "name": "Graz",
        "type": "city",
        "coordinates": {
          "lat":47.070605,
          "lng":15.439637
        },
        "popupContent": "city snazzy!",
        "places":[
          {
            "name": "Graz places-1",
            "type": "places",
            "coordinates": {
              "lat": 47.076817,
              "lng":  15.448756
            },
            "popupContent": "places snazzy!"
          },
          {
            "name": "Graz places-2",
            "type": "places",
            "coordinates": {
              "lat":47.071084,
              "lng":  15.447569
            },
            "popupContent": "places snazzy!"
          }
        ]
      }
    ]
  },
  {
    "name": "Poland",
    "type": "country",
    "coordinates":{
      "lat":52.2330653,
      "lng":20.9211121
    },
    "popupContent": "country snazzy!",
    "places":[
      {
        "name": "Warszawa places-1",
        "type": "places",
        "coordinates": {
          "lat": 52.230026,
          "lng": 21.016391
        },
        "popupContent": "places snazzy!"
      },
      {
        "name": "Warszawa places-2",
        "type": "places",
        "coordinates": {
          "lat": 52.253163,
          "lng":  20.963171
        },
        "popupContent": "places snazzy!"
      }
    ],
    "city": [
      {
        "name": "Lublin",
        "type": "city",
        "coordinates": {
          "lat":51.246043,
          "lng": 22.569310
        },
        "popupContent": "city snazzy!",
        "places":[
          {
            "name": "Lublin places-1",
            "type": "places",
            "coordinates": {
              "lat": 51.253635,
              "lng": 22.508631
            },
            "popupContent": "places snazzy!"
          },
          {
            "name": "Lublin places-2",
            "type": "places",
            "coordinates": {
              "lat":51.232775,
              "lng": 22.512360
            },
            "popupContent": "places snazzy!"
          }
        ]
      },
      {
        "name": "Gdansk",
        "type": "city",
        "coordinates": {
          "lat":54.351001,
          "lng":18.645946
        },
        "popupContent": "city snazzy!",
        "places":[
          {
            "name": "Gdansk places-1",
            "type": "places",
            "coordinates": {
              "lat":54.344517,
              "lng":18.617752
            },
            "popupContent": "places snazzy!"
          }
        ]
      }
    ]
  },
  {
    "name": "Portugal",
    "type": "country",
    "coordinates":{
      "lat":38.7436883,
      "lng":-9.1952227
    },
    "popupContent": "country snazzy!",
    "places":[
      {
        "name": "Lisbon places-1",
        "type": "places",
        "coordinates": {
          "lat": 38.723320,
          "lng":  -9.131885
        },
        "popupContent": "places snazzy!"
      },
      {
        "name": "Lisbon places-2",
        "type": "places",
        "coordinates": {
          "lat": 38.740037,
          "lng": -9.114965
        },
        "popupContent": "places snazzy!"
      },
      {
        "name": "Lisbon places-3",
        "type": "places",
        "coordinates": {
          "lat": 38.819248,
          "lng":-9.451029
        },
        "popupContent": "places snazzy!"
      },
      {
        "name": "Lisbon places-4",
        "type": "places",
        "coordinates": {
          "lat": 38.682572,
          "lng":-9.322616
        },
        "popupContent": "places snazzy!"
      }
    ],
    "city": [
      {
        "name": "Porto",
        "type": "city",
        "coordinates": {
          "lat":41.158379,
          "lng": -8.628669
        },
        "popupContent": "city snazzy!",
        "places":[
          {
            "name": "Porto places-1",
            "type": "places",
            "coordinates": {
              "lat": 41.145346,
              "lng": -8.605381
            },
            "popupContent": "places snazzy!"
          },
          {
            "name": "Porto places-2",
            "type": "places",
            "coordinates": {
              "lat":41.169802,
              "lng": -8.684286
            },
            "popupContent": "places snazzy!"
          }
        ]
      }
    ]
  },
  {
    "name": "Spaine",
    "type": "country",
    "coordinates":{
      "lat":40.4381311,
      "lng":-3.81962
    },
    "popupContent": "country snazzy!",
    "places":[

    ],
    "city": [
      {
        "name": "Valencia",
        "type": "city",
        "coordinates": {
          "lat":39.498625,
          "lng": -0.356263
        },
        "popupContent": "city snazzy!",
        "places":[
          {
            "name": "Valencia places-1",
            "type": "places",
            "coordinates": {
              "lat": 39.422405,
              "lng": -0.454184
            },
            "popupContent": "places snazzy!"
          },
          {
            "name": "Valencia places-2",
            "type": "places",
            "coordinates": {
              "lat":39.412399,
              "lng": -0.338416
            },
            "popupContent": "places snazzy!"
          }
        ]
      },
      {
        "name": "Malaga",
        "type": "city",
        "coordinates": {
          "lat":36.748123,
          "lng": -4.424363
        },
        "popupContent": "city snazzy!",
        "places":[
          {
            "name": "Malaga places-1",
            "type": "places",
            "coordinates": {
              "lat":36.722474,
              "lng": -4.587669
            },
            "popupContent": "places snazzy!"
          },
          {
            "name": "Malaga places-2",
            "type": "places",
            "coordinates": {
              "lat":36.731221,
              "lng":-4.239918
            },
            "popupContent": "places snazzy!"
          },
          {
            "name": "Malaga places-3",
            "type": "places",
            "coordinates": {
              "lat":36.781986,
              "lng": -4.371679
            },
            "popupContent": "places snazzy!"
          }
        ]
      },
      {
        "name": "Sevilla",
        "type": "city",
        "coordinates": {
          "lat":37.406843,
          "lng": -5.971935
        },
        "popupContent": "city snazzy!",
        "places":[
          {
            "name": "Sevilla places-1",
            "type": "places",
            "coordinates": {
              "lat":37.386588,
              "lng":  -6.030577
            },
            "popupContent": "places snazzy!"
          },
          {
            "name": "Sevilla places-2",
            "type": "places",
            "coordinates": {
              "lat":37.427177,
              "lng": -5.879674
            },
            "popupContent": "places snazzy!"
          }
        ]
      },
      {
        "name": "Bilbo",
        "type": "city",
        "coordinates": {
          "lat":43.296457,
          "lng": -2.917451
        },
        "popupContent": "city snazzy!",
        "places":[
          {
            "name": "Bilbo places-1",
            "type": "places",
            "coordinates": {
              "lat":43.271260,
              "lng":-3.084513
            },
            "popupContent": "places snazzy!"
          }
        ]
      }
    ]
  },
  {
    "name": "Italy",
    "type": "country",
    "coordinates":{
      "lat":41.9102415,
      "lng":12.3959147
    },
    "popupContent": "country snazzy!",
    "places":[
      {
        "name": "Rome places-1",
        "type": "places",
        "coordinates": {
          "lat": 41.856591,
          "lng":   12.501217
        },
        "popupContent": "places snazzy!"
      },
      {
        "name": "Rome places-2",
        "type": "places",
        "coordinates": {
          "lat": 41.871498,
          "lng": 12.397387
        },
        "popupContent": "places snazzy!"
      },
      {
        "name": "Rome places-3",
        "type": "places",
        "coordinates": {
          "lat":41.945553,
          "lng": 12.412944
        },
        "popupContent": "places snazzy!"
      },
      {
        "name": "Rome places-4",
        "type": "places",
        "coordinates": {
          "lat": 41.899270,
          "lng":12.569872
        },
        "popupContent": "places snazzy!"
      }
    ],
    "city": [
      {
        "name": "Palermo",
        "type": "city",
        "coordinates": {
          "lat":38.120332,
          "lng": 13.361874
        },
        "popupContent": "city snazzy!",
        "places":[
          {
            "name": "Palermo places-1",
            "type": "places",
            "coordinates": {
              "lat": 38.060714,
              "lng": 13.426457
            },
            "popupContent": "places snazzy!"
          },
          {
            "name": "Palermo places-2",
            "type": "places",
            "coordinates": {
              "lat":38.071390,
              "lng": 13.075383
            },
            "popupContent": "places snazzy!"
          }
        ]
      }
    ]
  },
  {
    "name": "Russia",
    "type": "country",
    "coordinates":{
      "lat":55.755387,
      "lng":37.620691
    },
    "popupContent": "country snazzy!",
    "places":[
      {
        "name": "Moscow places-1",
        "type": "places",
        "coordinates": {
          "lat": 55.758660,
          "lng":  37.629003
        },
        "popupContent": "places snazzy!"
      },
      {
        "name": "Moscow places-2",
        "type": "places",
        "coordinates": {
          "lat": 55.760018,
          "lng": 37.606225
        },
        "popupContent": "places snazzy!"
      },
      {
        "name": "Moscow places-3",
        "type": "places",
        "coordinates": {
          "lat":55.749940,
          "lng":37.621731
        },
        "popupContent": "places snazzy!"
      },
      {
        "name": "Moscow places-4",
        "type": "places",
        "coordinates": {
          "lat":55.747417,
          "lng":37.616695
        },
        "popupContent": "places snazzy!"
      }
    ],
    "city": [
      {
        "name": "Saint Petersburg",
        "type": "city",
        "coordinates": {
          "lat":59.933768,
          "lng":30.328738
        },
        "popupContent": "city snazzy!",
        "places":[
          {
            "name": "Saint Petersburg places-1",
            "type": "places",
            "coordinates": {
              "lat": 59.919351,
              "lng": 30.300813
            },
            "popupContent": "places snazzy!"
          },
          {
            "name": "Saint Petersburg places-2",
            "type": "places",
            "coordinates": {
              "lat":59.914841,
              "lng": 30.353353
            },
            "popupContent": "places snazzy!"
          },
          {
            "name": "Saint Petersburg places-3",
            "type": "places",
            "coordinates": {
              "lat":59.935115,
              "lng":30.368055
            },
            "popupContent": "places snazzy!"
          },
          {
            "name": "Saint Petersburg places-4",
            "type": "places",
            "coordinates": {
              "lat":59.941999,
              "lng":30.329653
            },
            "popupContent": "places snazzy!"
          },
          {
            "name": "Saint Petersburg places-5",
            "type": "places",
            "coordinates": {
              "lat":59.936882,
              "lng":  30.306087
            },
            "popupContent": "places snazzy!"
          }
        ]
      }
    ]
  },
  {
    "name": "Germany",
    "type": "country",
    "coordinates":{
      "lat":52.518806,
      "lng":13.403038
    },
    "popupContent": "country snazzy!",
    "places":[
      {
        "name": "Berlin places-1",
        "type": "places",
        "coordinates": {
          "lat": 52.517670,
          "lng":  13.402296
        },
        "popupContent": "places snazzy!"
      }
    ],
    "city": [
      {
        "name": "Munich",
        "type": "city",
        "coordinates": {
          "lat":48.125835,
          "lng":11.568925
        },
        "popupContent": "city snazzy!",
        "places":[
          {
            "name": "Munich places-1",
            "type": "places",
            "coordinates": {
              "lat": 48.158107,
              "lng":  11.545395
            },
            "popupContent": "places snazzy!"
          },
          {
            "name": "Munich places-2",
            "type": "places",
            "coordinates": {
              "lat":48.147917,
              "lng": 11.588157
            },
            "popupContent": "places snazzy!"
          }
        ]
      }
    ]
  },
  {
    "name": "Ukraine",
    "type": "country",
    "coordinates":{
      "lat":50.453057,
      "lng":30.525216
    },
    "places":[
      {
        "name": "Kiev places-1",
        "type": "places",
        "coordinates": {
          "lat": 50.440355,
          "lng": 30.562697
        },
        "popupContent": "places snazzy!"
      },
      {
        "name": "Kiev places-2",
        "type": "places",
        "coordinates": {
          "lat": 50.453826,
          "lng": 30.511391
        },
        "popupContent": "places snazzy!"
      },
      {
        "name": "Kiev places-3",
        "type": "places",
        "coordinates": {
          "lat": 50.346604,
          "lng": 30.502105
        },
        "popupContent": "places snazzy!"
      },
      {
        "name": "Kiev places-4",
        "type": "places",
        "coordinates": {
          "lat": 50.414051,
          "lng": 30.677476
        },
        "popupContent": "places snazzy!"
      }
    ],
    "popupContent": "country snazzy!",
    "city": [
      {
        "name": "Lviv",
        "type": "city",
        "coordinates": {
          "lat":49.843252,
          "lng": 24.026903
        },
        "popupContent": "city snazzy!",
        "places":[
          {
            "name": "Lviv places-1",
            "type": "places",
            "coordinates": {
              "lat": 49.842178,
              "lng":   24.031430
            },
            "popupContent": "places snazzy!"
          },
          {
            "name": "Lviv places-2",
            "type": "places",
            "coordinates": {
              "lat":49.838489,
              "lng": 24.025002
            },
            "popupContent": "places snazzy!"
          },
          {
            "name": "Lviv places-3",
            "type": "places",
            "coordinates": {
              "lat":49.839850,
              "lng": 24.013053
            },
            "popupContent": "places snazzy!"
          }
        ]
      }
    ]
  },
  {
    "name": "Czechia",
    "type": "country",
    "coordinates":{
      "lat":50.0598058,
      "lng":14.3255416
    },
    "popupContent": "country snazzy!",
    "places":[

    ],
    "city": [
      {
        "name": "Brno",
        "type": "city",
        "coordinates": {
          "lat":49.193525,
          "lng": 16.621055
        },
        "popupContent": "city snazzy!",
        "places":[
          {
            "name": "Brno places-1",
            "type": "places",
            "coordinates": {
              "lat": 49.189064,
              "lng":   16.602340
            },
            "popupContent": "places snazzy!"
          },
          {
            "name": "Brno places-2",
            "type": "places",
            "coordinates": {
              "lat":49.196179,
              "lng": 16.621687
            },
            "popupContent": "places snazzy!"
          }
        ]
      }
    ]
  },
  {
    "name": "Romania",
    "type": "country",
    "coordinates":{
      "lat":44.4379269,
      "lng":26.0245979
    },
    "popupContent": "country snazzy!",
    "places":[

    ],
    "city": [

    ]
  }
]
